[
	{"id":511,"name":"Hotel HSM Lago Park","image":"https:\/\/images.alltours.de\/hotels\/268x200\/PMI47619.jpg","deeplink":"https:\/\/www.alltours.de","city":"Playa de Muro","price":293,"category":"3.5","location":{"lon":3.113425,"lat":39.81472}},
	{"id":512,"name":"App.-Hotel Sol Cala D'Or","image":"https:\/\/images.alltours.de\/hotels\/268x200\/PMI18004.jpg","deeplink":"https:\/\/www.alltours.de","city":"Cala d'Or","price":331,"category":"3","location":{"lon":3.232357,"lat":39.376347}},
	{"id":513,"name":"App.-Hotel Ola Bouganvillia","image":"https:\/\/images.alltours.de\/hotels\/268x200\/PMI96607.jpg","deeplink":"https:\/\/www.alltours.de","city":"Santa Ponsa","price":318,"category":"3.5","location":{"lon":2.4745095,"lat":39.523846}},
	{"id":514,"name":"Universal Hotel Elisa","image":"https:\/\/images.alltours.de\/hotels\/268x200\/PMI88506.jpg","deeplink":"https:\/\/www.alltours.de","city":"Alc\u00fadia","price":306,"category":"3.5","location":{"lon":3.1110191,"lat":39.813408}},
	{"id":515,"name":"App.-Hotel Canyamel Sun","image":"https:\/\/images.alltours.de\/hotels\/268x200\/PMI50410.jpg","deeplink":"https:\/\/www.alltours.de","city":"Canyamel","price":302,"category":"3.5","location":{"lon":3.4375942,"lat":39.658813}},
	{"id":518,"name":"App. Playa Ferrera","image":"https:\/\/images.alltours.de\/hotels\/268x200\/PMI8716.jpg","deeplink":"https:\/\/www.alltours.de","city":"Cala d'Or","price":312,"category":"3.5","location":{"lon":3.2385824,"lat":39.381092}},
	{"id":519,"name":"Hotel Inturotel Cala Azul Garden","image":"https:\/\/images.alltours.de\/hotels\/268x200\/PMI19719.jpg","deeplink":"https:\/\/www.alltours.de","city":"Cala d'Or","price":320,"category":"3.5","location":{"lon":3.236474,"lat":39.3796}},
	{"id":520,"name":"App. Massanet","image":"https:\/\/images.alltours.de\/hotels\/268x200\/PMI44808.jpg","deeplink":"https:\/\/www.alltours.de","city":"Canyamel","price":325,"category":"2.5","location":{"lon":3.437234,"lat":39.659264}},
	{"id":521,"name":"Hotel La Ni\u00f1a","image":"https:\/\/images.alltours.de\/hotels\/268x200\/PMI92010.jpg","deeplink":"https:\/\/www.alltours.de","city":"Cala Millor","price":331,"category":"3.5","location":{"lon":3.3828127,"lat":39.59907}},
	{"id":522,"name":"Hotel HSM Reina del Mar","image":"https:\/\/images.alltours.de\/hotels\/268x200\/PMI0510.jpg","deeplink":"https:\/\/www.alltours.de","city":"S'Arenal","price":367,"category":"3","location":{"lon":2.7542598,"lat":39.50101}},
	{"id":523,"name":"Hotel Na Taconera","image":"https:\/\/images.alltours.de\/hotels\/268x200\/PMI54213.jpg","deeplink":"https:\/\/www.alltours.de","city":"Cala Rajada","price":341,"category":"3.5","location":{"lon":3.4497232,"lat":39.686794}},
	{"id":524,"name":"Hotel JS Horitz\u00f3","image":"https:\/\/images.alltours.de\/hotels\/268x200\/PMI32616.jpg","deeplink":"https:\/\/www.alltours.de","city":"Can Picafort","price":345,"category":"3","location":{"lon":3.1522822,"lat":39.767677}},
	{"id":525,"name":"Hotel Riutort","image":"https:\/\/images.alltours.de\/hotels\/268x200\/PMI29906.jpg","deeplink":"https:\/\/www.alltours.de","city":"S'Arenal","price":327,"category":"3","location":{"lon":2.7536979,"lat":39.50788}},
	{"id":526,"name":"Hotel JS Es Corso","image":"https:\/\/images.alltours.de\/hotels\/268x200\/PMI22120.jpg","deeplink":"https:\/\/www.alltours.de","city":"Porto Colom","price":345,"category":"3.5","location":{"lon":3.258771,"lat":39.41449}},
	{"id":527,"name":"Hotel Bei Juan","image":"https:\/\/images.alltours.de\/hotels\/268x200\/PMI11211.jpg","deeplink":"https:\/\/www.alltours.de","city":"S'Illot","price":339,"category":"2","location":{"lon":3.37273,"lat":39.5676}},
	{"id":528,"name":"Hotel Playa Blanca","image":"https:\/\/images.alltours.de\/hotels\/268x200\/PMI11206.jpg","deeplink":"https:\/\/www.alltours.de","city":"S'Illot","price":347,"category":"2.5","location":{"lon":3.37299,"lat":39.569813}},
	{"id":529,"name":"Hotel Club Martha's","image":"https:\/\/images.alltours.de\/hotels\/268x200\/PMI14401.jpg","deeplink":"https:\/\/www.alltours.de","city":"Cala d'Or","price":351,"category":"4.5","location":{"lon":3.2274404,"lat":39.36376}},
	{"id":530,"name":"Mirada de Alc\u00fadia","image":"https:\/\/images.alltours.de\/hotels\/268x200\/PMI24007.jpg","deeplink":"https:\/\/www.alltours.de","city":"Alc\u00fadia","price":344,"category":"3.5","location":{"lon":3.1161046,"lat":39.815872}}
]